City_ID,City,Country,Lat,Lng,Max Temp,Humidity,Cloudiness,Wind Speed,Current Description,Date
0,Murgab,TM,37.4966,61.9714,50.32,38,7,4.76,clear sky,2021-11-24 03:01:29
1,Saskylakh,RU,71.9167,114.0833,-18.29,90,49,12.03,scattered clouds,2021-11-24 03:01:29
2,Kapaa,US,22.0752,-159.319,79.12,71,23,1.01,few clouds,2021-11-24 03:01:29
3,Vostok,RU,46.4856,135.8833,12.31,88,100,10.31,light snow,2021-11-24 03:01:29
4,Arraial Do Cabo,BR,-22.9661,-42.0278,71.65,89,50,8.16,scattered clouds,2021-11-24 03:01:30
5,Pisco,PE,-13.7,-76.2167,63.01,93,100,4.94,overcast clouds,2021-11-24 03:01:30
6,Avarua,CK,-21.2078,-159.775,78.85,61,94,12.66,overcast clouds,2021-11-24 02:57:19
7,Bethel,US,41.3712,-73.414,34.05,59,0,1.01,clear sky,2021-11-24 02:57:20
8,Tuktoyaktuk,CA,69.4541,-133.0374,-5.24,98,100,3.49,overcast clouds,2021-11-24 03:01:30
9,Port Lincoln,AU,-34.7333,135.8667,69.39,70,66,11.68,light rain,2021-11-24 03:01:31
10,Ushuaia,AR,-54.8,-68.3,36.05,96,66,5.53,broken clouds,2021-11-24 03:01:31
11,Gat,IL,31.61,34.7642,62.4,66,100,2.8,overcast clouds,2021-11-24 03:01:31
12,Presidencia Roque Saenz Pena,AR,-26.7852,-60.4388,73.15,70,3,1.48,clear sky,2021-11-24 03:01:32
13,Pemangkat,ID,1.1667,108.9667,84.16,65,100,4.07,overcast clouds,2021-11-24 03:01:32
14,Busselton,AU,-33.65,115.3333,73.8,41,2,6.2,clear sky,2021-11-24 03:01:32
15,Bluff,NZ,-46.6,168.3333,57.92,70,100,13.51,overcast clouds,2021-11-24 03:01:32
16,Basoko,CD,1.2391,23.616,71.46,90,74,2.71,broken clouds,2021-11-24 03:01:33
17,Longyearbyen,SJ,78.2186,15.6401,6.64,61,0,16.11,clear sky,2021-11-24 02:58:00
18,Albany,US,42.6001,-73.9662,29.08,62,1,3.0,clear sky,2021-11-24 02:56:57
19,Evensk,RU,61.95,159.2333,10.51,72,97,9.53,overcast clouds,2021-11-24 03:01:33
20,Inzer,RU,54.2167,57.5556,6.26,98,100,2.71,overcast clouds,2021-11-24 03:01:33
21,Gananoque,CA,44.3334,-76.1661,23.07,81,0,2.98,clear sky,2021-11-24 03:01:23
22,Aykhal,RU,66.0,111.5,-11.51,93,100,8.72,overcast clouds,2021-11-24 03:01:34
23,Lorengau,PG,-2.0226,147.2712,80.73,84,100,15.3,moderate rain,2021-11-24 03:01:34
24,Jalingo,NG,8.8833,11.3667,77.31,27,73,3.02,broken clouds,2021-11-24 03:01:35
25,Ribeira Grande,PT,38.5167,-28.7,67.37,84,77,20.8,broken clouds,2021-11-24 03:01:35
26,Mataura,NZ,-46.1927,168.8643,63.54,46,100,6.73,overcast clouds,2021-11-24 03:01:35
27,Saint-Philippe,RE,-21.3585,55.7679,78.22,65,27,7.65,scattered clouds,2021-11-24 03:01:36
28,Lokhvytsya,UA,50.3678,33.2602,25.39,52,0,0.22,clear sky,2021-11-24 03:01:36
29,Chumikan,RU,54.7183,135.315,24.66,80,100,23.11,light snow,2021-11-24 03:01:36
30,Jamestown,US,42.097,-79.2353,31.51,82,13,5.01,few clouds,2021-11-24 02:59:36
31,Nanortalik,GL,60.1432,-45.2371,35.89,90,100,13.22,overcast clouds,2021-11-24 03:01:37
32,Narsaq,GL,60.9167,-46.05,28.62,87,100,10.76,light snow,2021-11-24 03:01:37
33,Port Blair,IN,11.6667,92.75,83.62,79,82,13.91,broken clouds,2021-11-24 03:01:37
34,Berbera,SO,10.4396,45.0143,76.37,63,9,4.47,clear sky,2021-11-24 03:01:37
35,Cape Town,ZA,-33.9258,18.4232,64.11,63,100,9.53,overcast clouds,2021-11-24 03:01:38
36,Barrow,US,71.2906,-156.7887,-4.41,97,100,8.52,overcast clouds,2021-11-24 02:57:33
37,Qaanaaq,GL,77.484,-69.3632,-6.45,69,34,8.08,scattered clouds,2021-11-24 02:57:28
38,Qaqortoq,GL,60.7167,-46.0333,28.9,75,100,10.74,overcast clouds,2021-11-24 03:01:38
39,Meulaboh,ID,4.1363,96.1285,80.74,81,100,5.03,overcast clouds,2021-11-24 02:58:55
40,Toshkivka,UA,48.7791,38.579,26.31,68,96,7.49,overcast clouds,2021-11-24 03:01:38
41,Vaini,TO,-21.2,-175.2,82.56,83,75,3.44,broken clouds,2021-11-24 02:57:05
42,Hilo,US,19.7297,-155.09,75.25,91,100,1.01,overcast clouds,2021-11-24 03:01:23
43,Tilichiki,RU,60.4667,166.1,2.28,91,95,8.86,overcast clouds,2021-11-24 03:01:39
44,Rikitea,PF,-23.1203,-134.9692,76.86,82,100,12.88,overcast clouds,2021-11-24 03:01:39
45,Dali,CN,25.7,100.1833,53.62,68,46,1.86,scattered clouds,2021-11-24 03:01:40
46,Esperance,AU,-33.8667,121.9,64.0,56,1,9.64,clear sky,2021-11-24 03:01:40
47,Pokosnoye,RU,55.5258,101.0536,20.17,84,89,5.64,overcast clouds,2021-11-24 03:01:40
48,Pecos,US,31.4229,-103.4932,67.3,31,1,3.44,clear sky,2021-11-24 03:01:41
49,Kruisfontein,ZA,-34.0033,24.7314,53.89,78,67,3.91,broken clouds,2021-11-24 03:01:41
50,Fare,PF,-16.7,-151.0167,81.1,70,35,2.17,scattered clouds,2021-11-24 02:57:35
51,Broome,US,42.2506,-75.833,27.66,79,8,1.99,clear sky,2021-11-24 02:59:42
52,Ust-Tsilma,RU,65.441,52.1498,5.09,95,46,4.59,scattered clouds,2021-11-24 02:59:19
53,Hobart,AU,-42.8794,147.3294,75.06,63,75,1.01,broken clouds,2021-11-24 03:01:42
54,Provideniya,RU,64.3833,-173.3,10.51,48,0,2.24,clear sky,2021-11-24 03:01:42
55,Punta Arenas,CL,-53.15,-70.9167,44.11,75,47,12.77,scattered clouds,2021-11-24 03:01:42
56,Concordia,AR,-31.393,-58.0209,66.78,50,7,7.0,clear sky,2021-11-24 03:01:42
57,Normandin,CA,48.8333,-72.5321,21.02,83,8,8.57,clear sky,2021-11-24 03:01:43
58,Mar Del Plata,AR,-38.0023,-57.5575,65.08,68,0,3.0,clear sky,2021-11-24 03:00:05
59,Dikson,RU,73.5069,80.5464,5.83,92,100,10.42,overcast clouds,2021-11-24 02:57:22
60,College,US,64.8569,-147.8028,-17.54,94,9,3.53,clear sky,2021-11-24 03:01:43
61,Chuy,UY,-33.6971,-53.4616,53.15,77,0,4.99,light rain,2021-11-24 03:01:43
62,Bowen,AU,-20.0167,148.2333,83.32,69,98,10.76,overcast clouds,2021-11-24 03:01:44
63,Nikolskoye,RU,59.7035,30.7861,31.87,87,100,13.35,light snow,2021-11-24 03:01:44
64,Hithadhoo,MV,-0.6,73.0833,82.04,76,91,17.74,overcast clouds,2021-11-24 03:01:44
65,Ambanja,MG,-13.6833,48.45,75.24,89,27,1.54,scattered clouds,2021-11-24 03:01:45
66,Muros,ES,42.7762,-9.0603,51.85,71,10,13.89,clear sky,2021-11-24 03:01:45
67,Port Alfred,ZA,-33.5906,26.891,61.14,76,86,13.27,moderate rain,2021-11-24 03:01:45
68,Puerto Ayora,EC,-0.7393,-90.3518,68.99,81,13,6.89,few clouds,2021-11-24 03:01:45
69,Hot Springs,US,34.5037,-93.0552,53.4,52,1,3.0,clear sky,2021-11-24 03:01:46
70,Ballina,AU,-28.8667,153.5667,73.78,96,100,11.74,overcast clouds,2021-11-24 03:01:46
71,Jining,CN,35.405,116.5814,50.18,39,0,8.72,clear sky,2021-11-24 03:00:22
72,Tasiilaq,GL,65.6145,-37.6368,15.46,64,100,3.6,overcast clouds,2021-11-24 02:56:49
73,Luderitz,NA,-26.6481,15.1594,61.2,72,74,16.6,broken clouds,2021-11-24 03:01:46
74,Butaritari,KI,3.0707,172.7902,82.18,70,100,12.95,overcast clouds,2021-11-24 03:01:47
75,Necochea,AR,-38.5473,-58.7368,68.04,25,0,20.51,clear sky,2021-11-24 02:59:56
76,Lata,PT,40.1629,-8.3327,45.81,89,77,2.91,broken clouds,2021-11-24 03:01:47
77,Bandarbeyla,SO,9.4942,50.8122,81.23,53,92,15.01,overcast clouds,2021-11-24 03:01:48
78,Hauterive,FR,46.0901,3.4459,39.96,96,8,1.34,clear sky,2021-11-24 03:01:48
79,Hermanus,ZA,-34.4187,19.2345,62.91,81,100,8.68,overcast clouds,2021-11-24 03:01:48
80,Zaplavnoye,RU,48.7048,45.0229,29.62,71,78,10.56,broken clouds,2021-11-24 03:01:48
81,Cleveland,US,41.4995,-81.6954,30.6,71,1,5.75,clear sky,2021-11-24 03:01:49
82,Trelew,AR,-43.249,-65.3051,71.64,39,41,25.41,scattered clouds,2021-11-24 03:01:49
83,Berlevag,NO,70.8578,29.0864,23.88,75,100,2.62,light snow,2021-11-24 03:01:49
84,Ponta Do Sol,PT,32.6667,-17.1,69.01,80,100,7.0,overcast clouds,2021-11-24 03:01:50
85,Parchim,DE,53.4263,11.8488,44.71,84,79,6.69,broken clouds,2021-11-24 03:01:50
86,Khatanga,RU,71.9667,102.5,-1.57,83,100,13.71,overcast clouds,2021-11-24 03:01:50
87,Palu,ID,-0.8917,119.8707,86.83,73,68,3.13,broken clouds,2021-11-24 03:01:51
88,Svetlaya,RU,46.5389,138.3297,23.13,54,95,7.72,overcast clouds,2021-11-24 03:01:51
89,America Dourada,BR,-11.4553,-41.4361,72.77,85,97,2.42,overcast clouds,2021-11-24 03:01:51
90,Labuhan,ID,-6.8844,112.2051,85.51,65,95,7.76,light rain,2021-11-24 03:01:52
91,Moranbah,AU,-22.0016,148.0466,94.05,29,86,4.41,overcast clouds,2021-11-24 03:01:52
92,Yellowknife,CA,62.456,-114.3525,-13.45,68,100,5.99,overcast clouds,2021-11-24 03:01:52
93,Khani,GE,41.9563,42.9566,38.77,64,59,4.12,broken clouds,2021-11-24 02:57:52
94,Nevele,BE,51.0591,3.5577,45.93,94,8,3.29,clear sky,2021-11-24 03:01:53
95,Kaitangata,NZ,-46.2817,169.8464,62.85,52,100,3.89,light rain,2021-11-24 03:01:53
96,Gaoual,GN,11.75,-13.2,72.61,50,90,2.3,overcast clouds,2021-11-24 03:01:53
97,Kiama,AU,-34.6833,150.8667,75.25,81,100,13.0,light rain,2021-11-24 03:01:53
98,Saldanha,ZA,-33.0117,17.9442,61.14,77,98,14.29,overcast clouds,2021-11-24 03:01:54
99,Atuona,PF,-9.8,-139.0333,77.65,77,51,12.8,broken clouds,2021-11-24 03:01:54
100,Bossangoa,CF,6.4926,17.4552,69.87,52,40,2.53,scattered clouds,2021-11-24 03:01:54
101,Lompoc,US,34.6391,-120.4579,57.11,85,1,6.91,clear sky,2021-11-24 03:01:55
102,Sandakan,MY,5.8402,118.1179,82.2,81,95,4.7,overcast clouds,2021-11-24 03:01:17
103,Sorso,IT,40.8,8.5772,52.29,89,8,9.42,clear sky,2021-11-24 03:01:55
104,Yining,CN,29.0361,114.5636,57.81,38,0,0.92,clear sky,2021-11-24 03:01:55
105,Dekar,BW,-21.5333,21.9333,65.91,28,1,7.87,clear sky,2021-11-24 03:01:56
106,Mount Gambier,AU,-37.8333,140.7667,75.27,49,78,7.4,broken clouds,2021-11-24 03:01:56
107,Port Elizabeth,ZA,-33.918,25.5701,56.1,75,97,7.74,light rain,2021-11-24 03:01:56
108,Rio Verde De Mato Grosso,BR,-18.9181,-54.8442,77.43,82,57,2.59,moderate rain,2021-11-24 03:01:57
109,Conakry,GN,9.538,-13.6773,77.36,80,19,10.58,few clouds,2021-11-24 03:01:57
110,Hervey Bay,AU,-25.2986,152.8535,86.04,70,98,9.6,overcast clouds,2021-11-24 03:01:57
111,Korla,CN,41.7597,86.1469,30.16,52,6,3.67,clear sky,2021-11-24 03:01:58
112,Torbay,CA,47.6666,-52.7314,44.28,96,90,33.38,light intensity drizzle,2021-11-24 03:00:06
113,Bani,DO,18.2833,-70.3333,74.64,84,87,3.15,overcast clouds,2021-11-24 03:01:58
114,Annonay,FR,45.2397,4.6708,41.81,93,8,3.36,clear sky,2021-11-24 03:01:58
115,Constitucion,CL,-35.3333,-72.4167,55.53,88,65,10.36,broken clouds,2021-11-24 03:01:59
116,Andros Town,BS,24.7,-77.7667,73.38,59,0,21.72,clear sky,2021-11-24 03:01:59
117,Yulara,AU,-25.2406,130.9889,73.24,46,75,13.8,broken clouds,2021-11-24 02:59:33
118,San Cristobal,VE,7.7669,-72.225,65.71,94,70,1.41,broken clouds,2021-11-24 03:01:59
119,Mosquera,CO,4.7059,-74.2302,51.31,91,100,2.71,overcast clouds,2021-11-24 03:02:00
120,Erzin,TR,36.9559,36.2,57.72,65,100,2.33,overcast clouds,2021-11-24 03:02:00
121,Victoria,HK,22.2855,114.1577,70.25,66,0,1.01,clear sky,2021-11-24 02:59:29
122,Guerrero Negro,MX,27.9769,-114.0611,65.32,80,100,12.3,overcast clouds,2021-11-24 03:02:00
123,Chokurdakh,RU,70.6333,147.9167,-22.23,98,100,4.18,overcast clouds,2021-11-24 03:02:01
124,Ternate,ID,0.8,127.4,85.14,69,86,4.5,overcast clouds,2021-11-24 03:02:01
125,Dalbandin,PK,28.8947,64.4101,59.34,27,0,3.36,clear sky,2021-11-24 03:02:02
126,Hurghada,EG,27.2574,33.8129,66.38,54,90,13.96,overcast clouds,2021-11-24 03:00:15
127,Hofn,IS,64.2539,-15.2082,37.17,60,31,19.69,scattered clouds,2021-11-24 02:59:34
128,Natal,BR,-5.795,-35.2094,79.02,89,20,5.75,few clouds,2021-11-24 02:58:39
129,Ayagoz,KZ,47.9714,80.4392,28.4,88,100,8.16,overcast clouds,2021-11-24 03:02:02
130,Quatre Cocos,MU,-20.2078,57.7625,79.09,73,20,9.31,few clouds,2021-11-24 03:02:02
131,Beatrice,US,40.2681,-96.747,60.01,36,1,16.11,clear sky,2021-11-24 03:02:03
132,Kodiak,US,57.79,-152.4072,16.63,88,100,9.08,light snow,2021-11-24 03:02:03
133,Sitka,US,57.0531,-135.33,34.57,83,100,5.48,light rain,2021-11-24 03:02:03
134,Mabaruma,GY,8.2,-59.7833,73.08,98,98,2.39,overcast clouds,2021-11-24 03:02:04
135,Alofi,NU,-19.0595,-169.9187,84.09,61,40,5.75,scattered clouds,2021-11-24 02:57:44
136,Margate,GB,51.3813,1.3862,44.69,90,5,1.99,clear sky,2021-11-24 03:01:08
137,Sampit,ID,-2.5333,112.95,77.02,93,100,3.2,overcast clouds,2021-11-24 03:02:04
138,Boa Vista,BR,2.8197,-60.6733,82.38,74,0,5.75,clear sky,2021-11-24 03:00:27
139,Sisimiut,GL,66.9395,-53.6735,34.03,94,100,47.49,light rain,2021-11-24 03:02:05
140,Igrim,RU,63.1906,64.4162,6.75,91,97,8.12,overcast clouds,2021-11-24 03:02:05
141,Southbridge,US,42.0751,-72.0334,29.93,58,0,3.0,clear sky,2021-11-24 03:02:05
142,Maragogi,BR,-9.0122,-35.2225,78.01,80,18,9.1,few clouds,2021-11-24 03:02:06
143,New Norfolk,AU,-42.7826,147.0587,74.71,51,100,1.99,overcast clouds,2021-11-24 03:02:06
144,Norman Wells,CA,65.282,-126.8329,-14.98,98,99,2.19,overcast clouds,2021-11-24 03:02:06
145,Bengkulu,ID,-3.8004,102.2655,78.73,74,100,1.74,overcast clouds,2021-11-24 03:02:07
146,Eureka,US,40.8021,-124.1637,52.93,74,30,8.99,scattered clouds,2021-11-24 03:01:42
147,Tiksi,RU,71.6872,128.8694,-20.58,98,43,7.2,scattered clouds,2021-11-24 03:02:07
148,Zary,PL,51.6421,15.1373,41.86,95,100,3.0,overcast clouds,2021-11-24 03:01:07
149,Mahebourg,MU,-20.4081,57.7,79.25,73,12,9.91,few clouds,2021-11-24 03:01:06
150,Ukiah,US,39.1502,-123.2078,54.64,74,1,0.0,clear sky,2021-11-24 03:02:08
151,Tres Arroyos,AR,-38.3739,-60.2798,69.93,23,1,18.63,clear sky,2021-11-24 03:01:21
152,Tsiroanomandidy,MG,-18.7667,46.0333,70.09,82,100,0.6,overcast clouds,2021-11-24 03:02:08
153,Verkhnevilyuysk,RU,63.4453,120.3167,-16.74,91,8,3.29,clear sky,2021-11-24 03:02:08
154,San Luis,AR,-33.295,-66.3356,72.95,46,27,19.46,scattered clouds,2021-11-24 02:59:56
155,Leningradskiy,RU,69.3833,178.4167,-16.26,80,69,2.48,broken clouds,2021-11-24 03:02:09
156,Khorixas,NA,-20.3667,14.9667,60.22,40,0,0.45,clear sky,2021-11-24 03:02:09
157,Petatlan,MX,17.5167,-101.2667,74.86,93,46,3.67,scattered clouds,2021-11-24 03:02:09
158,Mogadishu,SO,2.0371,45.3438,79.2,77,52,8.37,broken clouds,2021-11-24 03:02:10
159,Taoudenni,ML,22.6783,-3.9836,76.57,36,98,6.02,overcast clouds,2021-11-24 03:02:10
160,Nikolayevsk-Na-Amure,RU,53.1406,140.73,28.9,83,40,3.71,scattered clouds,2021-11-24 03:02:10
161,Vila Velha,BR,-20.3297,-40.2925,71.94,93,19,5.99,few clouds,2021-11-24 03:02:10
162,East London,ZA,-33.0153,27.9116,58.62,84,100,11.7,light rain,2021-11-24 03:02:11
163,Tuatapere,NZ,-46.1333,167.6833,61.75,57,100,9.48,overcast clouds,2021-11-24 03:02:11
164,Tumut,AU,-35.3,148.2167,64.54,92,100,1.99,light rain,2021-11-24 03:02:11
165,Castro,BR,-24.7911,-50.0119,64.33,74,100,7.7,overcast clouds,2021-11-24 03:01:00
166,Bredasdorp,ZA,-34.5322,20.0403,57.27,85,99,4.79,overcast clouds,2021-11-24 03:02:12
167,Bilgoraj,PL,50.5411,22.722,38.66,92,93,5.5,overcast clouds,2021-11-24 03:02:12
168,Port Hedland,AU,-20.3167,118.5667,96.85,17,97,16.11,overcast clouds,2021-11-24 03:02:12
169,Clyde River,CA,70.4692,-68.5914,17.83,86,100,26.46,snow,2021-11-24 03:02:13
170,Kargat,RU,55.1956,80.2811,20.32,90,100,15.73,overcast clouds,2021-11-24 03:02:13
171,La Ronge,CA,55.1001,-105.2842,6.48,89,100,11.1,overcast clouds,2021-11-24 03:02:13
172,Hede,CN,33.7681,120.2517,54.01,34,0,12.15,clear sky,2021-11-24 03:02:14
173,Oranjestad,AW,12.524,-70.027,80.55,78,20,11.5,few clouds,2021-11-24 02:58:05
174,Takoradi,GH,4.8845,-1.7554,79.11,82,12,6.76,few clouds,2021-11-24 02:57:48
175,Goure,NE,13.9835,10.2704,77.02,18,1,8.52,clear sky,2021-11-24 03:02:14
176,Cabo San Lucas,MX,22.8909,-109.9124,75.61,77,20,3.0,few clouds,2021-11-24 03:02:14
177,Sao Francisco,BR,-15.9486,-44.8644,73.36,78,65,2.82,light rain,2021-11-24 03:02:15
178,Sao Felix Do Xingu,BR,-6.6447,-51.995,73.49,93,100,2.71,overcast clouds,2021-11-24 03:02:15
179,Sioux Lookout,CA,50.1001,-91.917,23.29,97,99,3.36,overcast clouds,2021-11-24 03:02:15
180,Pailon,BO,-17.65,-62.75,80.62,69,100,4.25,overcast clouds,2021-11-24 03:02:15
181,Aklavik,CA,68.2191,-135.0107,-15.27,99,100,3.58,overcast clouds,2021-11-24 03:02:16
182,Salinopolis,BR,-0.6136,-47.3561,79.56,85,91,9.64,overcast clouds,2021-11-24 03:01:27
183,Jiwani,PK,25.05,61.7417,76.77,69,29,7.29,scattered clouds,2021-11-24 03:02:16
184,Laramie,US,41.3114,-105.5911,45.86,35,1,3.0,clear sky,2021-11-24 03:01:33
185,Pangnirtung,CA,66.1451,-65.7125,22.68,96,100,6.38,snow,2021-11-24 03:02:17
186,Keetmanshoop,NA,-26.5833,18.1333,64.89,43,94,2.82,overcast clouds,2021-11-24 03:02:17
187,Elko,US,41.0002,-115.5012,35.22,55,7,7.0,clear sky,2021-11-24 03:02:17
188,Kavieng,PG,-2.5744,150.7967,84.94,72,99,15.68,light rain,2021-11-24 03:02:17
189,Oktyabrskoye,RU,43.0645,44.7417,32.14,93,57,6.71,broken clouds,2021-11-24 03:02:18
190,San Quintin,MX,30.4833,-115.95,62.19,84,8,5.44,clear sky,2021-11-24 02:59:05
191,Ios,GR,36.7333,25.2833,62.96,75,99,13.0,overcast clouds,2021-11-24 03:02:18
192,Baykit,RU,61.67,96.37,21.24,96,100,5.17,snow,2021-11-24 03:02:18
193,Boralday,KZ,43.3578,76.8594,28.26,86,9,0.0,mist,2021-11-24 03:02:19
194,Komsomolskiy,UZ,40.4272,71.7189,39.92,52,100,2.3,haze,2021-11-24 03:02:19
195,Chara,RU,56.9064,118.2631,-11.2,87,99,0.98,overcast clouds,2021-11-24 03:02:19
196,Kenai,US,60.5544,-151.2583,15.15,91,79,7.99,broken clouds,2021-11-24 03:02:20
197,Hay River,CA,60.8156,-115.7999,-1.89,92,100,4.94,overcast clouds,2021-11-24 03:02:20
198,Daru,PG,-9.0763,143.2092,87.78,62,13,7.76,few clouds,2021-11-24 03:02:21
199,Fortuna,US,40.5982,-124.1573,52.66,71,90,3.0,overcast clouds,2021-11-24 03:02:21
200,Belle Fourche,US,44.6714,-103.8522,48.43,28,29,6.08,scattered clouds,2021-11-24 03:02:21
201,Pundaguitan,PH,6.3711,126.1689,80.58,84,100,17.16,heavy intensity rain,2021-11-24 03:02:21
202,Houlton,US,46.1262,-67.8403,25.21,72,90,14.97,overcast clouds,2021-11-24 03:02:22
203,Touros,BR,-5.1989,-35.4608,77.9,79,96,10.92,overcast clouds,2021-11-24 02:59:44
204,Klaksvik,FO,62.2266,-6.589,41.92,63,38,30.04,scattered clouds,2021-11-24 02:58:14
205,Jamtara,IN,23.95,86.8,70.52,30,2,6.24,clear sky,2021-11-24 03:02:22
206,Metro,ID,-5.1131,105.3067,79.95,75,100,6.49,light rain,2021-11-24 03:02:22
207,Kayes,ML,14.0,-11.0,79.48,23,89,3.36,overcast clouds,2021-11-24 03:02:23
208,Northam,GB,51.0333,-4.2167,46.62,85,78,0.96,broken clouds,2021-11-24 03:02:23
209,Te Anau,NZ,-45.4167,167.7167,68.18,39,97,2.86,overcast clouds,2021-11-24 02:58:46
210,Gazojak,TM,41.1875,61.4036,45.55,49,6,5.32,clear sky,2021-11-24 03:02:23
211,Najran,SA,17.4924,44.1277,57.11,36,19,1.83,few clouds,2021-11-24 03:02:24
212,Bathsheba,BB,13.2167,-59.5167,79.18,84,87,12.57,overcast clouds,2021-11-24 03:02:24
213,Lora Del Rio,ES,37.659,-5.5275,43.68,82,17,2.82,few clouds,2021-11-24 03:02:24
214,Tambovka,RU,50.0969,128.0489,21.31,80,100,21.7,overcast clouds,2021-11-24 03:02:25
215,Carnarvon,AU,-24.8667,113.6333,88.7,32,0,11.27,clear sky,2021-11-24 03:02:25
216,Hovd,MN,48.0056,91.6419,29.52,51,100,6.69,overcast clouds,2021-11-24 03:02:25
217,Lithakia,GR,37.7167,20.8333,57.58,75,8,1.9,clear sky,2021-11-24 03:01:44
218,Kutum,SD,14.2,24.6667,57.54,26,0,6.53,clear sky,2021-11-24 03:02:26
219,Bafra,TR,41.5678,35.9069,55.81,87,100,14.97,light rain,2021-11-24 03:02:26
220,Batsfjord,NO,70.6345,29.7185,21.92,85,100,2.35,light snow,2021-11-24 03:02:26
221,Uddevalla,SE,58.3478,11.9424,47.07,80,26,11.07,scattered clouds,2021-11-24 03:02:26
222,Atar,MR,20.5169,-13.0499,78.06,37,59,6.42,broken clouds,2021-11-24 02:59:17
223,Morant Bay,JM,17.8815,-76.4093,73.62,81,47,4.81,scattered clouds,2021-11-24 03:02:27
224,Pitimbu,BR,-7.4706,-34.8086,78.8,76,12,9.24,few clouds,2021-11-24 03:02:27
225,Bustamante,MX,26.5333,-100.5,62.82,66,64,12.68,broken clouds,2021-11-24 03:02:27
226,Maceio,BR,-9.6658,-35.7353,76.44,88,20,3.44,few clouds,2021-11-24 03:00:17
227,Sao Filipe,CV,14.8961,-24.4956,78.8,73,100,2.08,overcast clouds,2021-11-24 03:02:28
228,Los Llanos De Aridane,ES,28.6585,-17.9182,64.15,83,0,5.01,clear sky,2021-11-24 03:02:28
229,Lavrentiya,RU,65.5833,-171.0,0.66,88,2,7.9,clear sky,2021-11-24 02:58:01
230,Alekseyevsk,RU,57.8406,108.3492,15.21,97,91,2.17,overcast clouds,2021-11-24 03:02:28
231,Katsuura,JP,35.1333,140.3,61.2,59,3,23.91,clear sky,2021-11-24 03:02:29
232,Calabozo,VE,8.9242,-67.4293,81.86,61,100,2.77,overcast clouds,2021-11-24 03:02:29
233,Codrington,AU,-38.2667,141.9667,67.6,72,75,11.34,broken clouds,2021-11-24 02:58:41
234,Mayor Pablo Lagerenza,PY,-19.9309,-60.7718,73.65,97,100,4.94,light rain,2021-11-24 03:02:29
235,Thompson,CA,55.7435,-97.8558,-3.84,71,75,8.05,broken clouds,2021-11-24 03:00:06
236,Walvis Bay,NA,-22.9575,14.5053,56.08,95,12,1.03,few clouds,2021-11-24 03:02:30
237,San Andres,CO,12.5847,-81.7006,81.57,69,100,14.2,overcast clouds,2021-11-24 03:02:30
238,Baoning,CN,25.3378,110.026,54.01,68,95,0.51,overcast clouds,2021-11-24 03:02:30
239,Olafsvik,IS,64.8945,-23.7142,33.1,66,49,17.27,scattered clouds,2021-11-24 03:02:30
240,Rocha,UY,-34.4833,-54.3333,47.35,86,0,6.4,clear sky,2021-11-24 03:01:26
241,Chunskiy,RU,56.0815,99.6342,19.54,86,87,3.2,overcast clouds,2021-11-24 03:02:31
242,Iqaluit,CA,63.7506,-68.5145,29.93,74,90,8.99,overcast clouds,2021-11-24 02:58:48
243,Kearney,US,40.6995,-99.0815,54.99,49,67,7.0,broken clouds,2021-11-24 03:00:06
244,Tessalit,ML,20.1986,1.0114,72.91,34,68,8.55,broken clouds,2021-11-24 03:02:31
245,Alice Springs,AU,-23.7,133.8833,72.95,60,90,12.66,overcast clouds,2021-11-24 03:02:32
246,Shache,CN,38.4167,77.2406,33.3,37,82,1.83,broken clouds,2021-11-24 03:02:32
247,Sao Joao Da Barra,BR,-21.6403,-41.0511,71.67,90,6,7.96,clear sky,2021-11-24 03:02:04
248,Rio Grande,BR,-32.035,-52.0986,60.44,69,0,6.78,clear sky,2021-11-24 03:02:32
249,Umm Lajj,SA,25.0213,37.2685,75.09,37,0,5.82,clear sky,2021-11-24 03:02:22
250,Doha,QA,25.2867,51.5333,75.18,64,0,13.8,clear sky,2021-11-24 02:59:11
251,Bonavista,CA,48.6499,-53.1147,46.11,87,100,26.42,overcast clouds,2021-11-24 03:02:33
252,Ihosy,MG,-22.4,46.1167,71.98,80,98,5.55,overcast clouds,2021-11-24 03:02:33
253,Moree,AU,-29.4667,149.85,82.02,47,100,13.62,overcast clouds,2021-11-24 03:02:33
254,Coolum Beach,AU,-26.5333,153.1,82.35,76,88,8.88,light rain,2021-11-24 03:02:33
255,Puerto Madryn,AR,-42.7692,-65.0385,71.6,41,12,22.24,few clouds,2021-11-24 03:02:34
256,Belyy Yar,RU,53.6039,91.3903,31.89,73,40,8.95,light shower snow,2021-11-24 02:59:56
257,Boueni,YT,-12.9025,45.0761,80.58,74,24,13.2,few clouds,2021-11-24 03:02:34
258,Udachnyy,RU,66.4167,112.4,-11.81,87,100,8.99,overcast clouds,2021-11-24 03:02:34
259,Arauco,CL,-37.2463,-73.3175,53.15,92,0,3.04,clear sky,2021-11-24 03:02:34
260,Varhaug,NO,58.6147,5.6457,49.48,86,100,17.98,overcast clouds,2021-11-24 03:02:35
261,Cherskiy,RU,68.75,161.3,-33.36,100,37,4.54,scattered clouds,2021-11-24 03:02:35
262,Naze,JP,28.3667,129.4833,60.75,59,43,12.26,scattered clouds,2021-11-24 03:02:35
263,Bambous Virieux,MU,-20.3428,57.7575,79.21,72,16,9.75,few clouds,2021-11-24 03:02:36
264,Sibolga,ID,1.7427,98.7792,84.4,64,100,2.01,overcast clouds,2021-11-24 03:02:36
265,Christchurch,NZ,-43.5333,172.6333,68.47,55,42,5.99,scattered clouds,2021-11-24 02:59:22
266,Nha Trang,VN,12.25,109.1833,80.6,83,100,15.9,overcast clouds,2021-11-24 02:58:05
267,Souillac,MU,-20.5167,57.5167,79.36,73,8,8.93,clear sky,2021-11-24 03:01:05
268,Tashla,RU,51.7716,52.7427,9.63,96,51,6.24,broken clouds,2021-11-24 03:02:36
269,Shenjiamen,CN,29.9576,122.298,51.58,45,0,5.64,clear sky,2021-11-24 03:02:37
270,Cockburn Town,TC,21.4612,-71.1419,80.65,76,84,13.4,broken clouds,2021-11-24 03:02:37
271,Seoul,KR,37.5683,126.9778,45.84,45,41,7.0,scattered clouds,2021-11-24 03:00:29
272,Ecija,ES,37.5422,-5.0826,44.74,84,11,3.71,few clouds,2021-11-24 03:02:37
273,Salinas,US,36.6777,-121.6555,59.68,75,100,1.36,overcast clouds,2021-11-24 02:59:09
274,Laguna,US,38.421,-121.4238,58.84,71,1,5.75,clear sky,2021-11-24 03:02:38
275,Skegness,GB,53.1436,0.3363,46.69,90,74,8.23,broken clouds,2021-11-24 03:02:38
276,Beira,MZ,-19.8436,34.8389,77.49,84,97,2.21,light rain,2021-11-24 03:02:38
277,Mbandaka,CD,0.0487,18.2603,71.02,96,100,0.58,light rain,2021-11-24 03:02:38
278,Mokrousovo,RU,55.8103,66.7653,13.66,91,100,13.31,overcast clouds,2021-11-24 03:02:39
279,Ulaangom,MN,49.9811,92.0667,15.03,85,94,1.59,overcast clouds,2021-11-24 03:02:39
280,Bang Saphan,TH,11.2126,99.5117,78.01,92,100,9.37,overcast clouds,2021-11-24 03:02:39
281,Channel-Port Aux Basques,CA,47.5702,-59.1367,50.31,94,100,46.15,moderate rain,2021-11-24 03:02:39
282,Kukuna,SL,9.4,-12.6667,73.53,65,17,0.74,few clouds,2021-11-24 03:02:40
283,Sorland,NO,67.667,12.6934,35.13,68,100,27.02,light rain,2021-11-24 03:02:40
284,Emerald,AU,-23.5333,148.1667,93.31,33,86,10.31,overcast clouds,2021-11-24 03:02:40
285,Milkovo,RU,54.7167,158.6167,26.67,95,100,9.19,overcast clouds,2021-11-24 03:02:41
286,Broken Hill,AU,-31.95,141.4333,81.1,42,98,7.76,overcast clouds,2021-11-24 03:02:41
287,Port Shepstone,ZA,-30.7414,30.455,62.49,65,0,19.44,clear sky,2021-11-24 02:59:01
288,Jericho,PS,31.8667,35.45,66.67,50,89,4.92,overcast clouds,2021-11-24 03:02:42
289,Riyadh,SA,24.6877,46.7219,60.94,55,3,7.45,clear sky,2021-11-24 02:58:46
290,Caravelas,BR,-17.7125,-39.2481,69.98,92,7,3.6,clear sky,2021-11-24 03:02:42
291,Luanda,AO,-8.8368,13.2343,78.8,83,20,5.75,few clouds,2021-11-24 03:01:50
292,Ascension,US,30.2169,-90.9001,50.0,88,1,0.0,clear sky,2021-11-24 03:02:44
293,Goderich,CA,43.7501,-81.7165,28.9,59,10,15.37,clear sky,2021-11-24 03:00:04
294,Akureyri,IS,65.6835,-18.0878,31.19,96,100,24.49,snow,2021-11-24 03:02:44
295,Wellington,NZ,-41.2866,174.7756,67.66,56,1,1.01,clear sky,2021-11-24 03:00:46
296,Neryungri,RU,56.6709,124.6491,-7.58,90,91,4.27,overcast clouds,2021-11-24 03:02:45
297,Upernavik,GL,72.7868,-56.1549,3.31,65,100,7.47,overcast clouds,2021-11-24 03:02:45
298,Mizdah,LY,31.4451,12.9801,56.91,74,8,4.88,clear sky,2021-11-24 03:02:45
299,Storforshei,NO,66.4043,14.5233,27.48,95,92,4.41,overcast clouds,2021-11-24 03:02:45
300,Roebourne,AU,-20.7833,117.1333,91.49,29,100,19.17,overcast clouds,2021-11-24 03:02:46
301,Sanming,CN,26.2486,117.6186,60.71,53,7,2.39,clear sky,2021-11-24 03:02:46
302,Ust-Nera,RU,64.5667,143.2,-15.48,95,95,4.14,overcast clouds,2021-11-24 03:02:46
303,Bay Roberts,CA,47.5999,-53.2648,45.03,87,100,7.0,overcast clouds,2021-11-24 03:02:47
304,Batemans Bay,AU,-35.7167,150.1833,75.99,65,100,10.16,light rain,2021-11-24 03:00:04
305,Buzovna,AZ,40.5179,50.1139,53.69,66,0,11.5,clear sky,2021-11-24 03:02:47
306,Biltine,TD,14.5333,20.9167,68.7,20,5,10.36,clear sky,2021-11-24 03:02:47
307,San Patricio,US,28.017,-97.5169,70.83,66,99,8.28,overcast clouds,2021-11-24 03:02:48
308,Kununurra,AU,-15.7667,128.7333,93.18,52,58,3.44,broken clouds,2021-11-24 03:02:48
309,Kadirli,TR,37.3739,36.0961,58.48,70,100,2.93,overcast clouds,2021-11-24 03:02:48
310,Ilulissat,GL,69.2167,-51.1,26.62,93,90,3.44,snow,2021-11-24 03:02:48
311,Asau,RO,46.4333,26.4,38.39,89,99,0.87,overcast clouds,2021-11-24 03:02:49
312,Aksarka,RU,66.5606,67.7975,1.38,98,100,3.18,overcast clouds,2021-11-24 03:02:49
313,Manaus,BR,-3.1019,-60.025,79.29,94,0,3.44,clear sky,2021-11-24 03:01:34
314,Pleshanovo,RU,52.8333,53.4833,0.12,100,91,2.75,overcast clouds,2021-11-24 03:02:49
315,Waingapu,ID,-9.6567,120.2641,88.03,61,91,7.49,overcast clouds,2021-11-24 03:02:50
316,Ikungi,TZ,-5.1333,34.7667,65.75,63,56,5.46,broken clouds,2021-11-24 03:02:50
317,Camopi,GF,3.1655,-52.3158,70.81,98,97,2.59,overcast clouds,2021-11-24 03:02:50
318,Cap Malheureux,MU,-19.9842,57.6142,79.47,71,17,5.01,few clouds,2021-11-24 03:01:10
319,Wilmington,US,34.2257,-77.9447,48.85,45,1,5.06,clear sky,2021-11-24 03:00:42
320,Chifeng,CN,42.2683,118.9636,30.29,38,31,9.15,scattered clouds,2021-11-24 03:02:51
321,Vesele,UA,47.0148,34.915,30.52,56,98,6.82,overcast clouds,2021-11-24 03:02:51
322,Hamilton,US,39.1834,-84.5333,34.93,68,1,0.0,clear sky,2021-11-24 03:02:43
323,Krasnoarmeysk,RU,51.0239,45.6969,16.29,75,46,5.82,scattered clouds,2021-11-24 03:02:52
324,Viet Tri,VN,21.3019,105.4308,66.15,54,85,2.04,overcast clouds,2021-11-24 03:02:52
325,Sidhi,IN,24.4167,81.8833,66.63,29,11,2.53,few clouds,2021-11-24 03:02:52
326,Kahului,US,20.8947,-156.47,83.46,67,40,8.05,scattered clouds,2021-11-24 03:02:52
327,La Suiza,CR,9.8524,-83.6133,71.6,98,100,1.21,overcast clouds,2021-11-24 03:02:53
328,Kyra,RU,49.5776,111.9753,15.85,78,89,1.5,overcast clouds,2021-11-24 03:02:53
329,Puerto Escondido,MX,15.85,-97.0667,78.66,73,1,3.96,clear sky,2021-11-24 03:02:53
330,Luoyang,CN,34.6836,112.4536,56.86,22,0,15.7,clear sky,2021-11-24 03:02:53
331,Sharan,RU,54.8167,54.0,3.61,100,98,6.62,overcast clouds,2021-11-24 03:02:54
332,Port Hardy,CA,50.6996,-127.4199,43.02,77,60,5.7,broken clouds,2021-11-24 03:02:54
333,Banjar,ID,-8.19,114.9675,85.91,75,93,2.17,overcast clouds,2021-11-24 03:02:54
334,Ayan,RU,56.45,138.1667,27.54,84,100,40.76,overcast clouds,2021-11-24 03:02:55
335,Cusuna,HN,15.85,-85.2333,74.53,87,90,7.23,overcast clouds,2021-11-24 03:02:55
336,Cabedelo,BR,-6.9811,-34.8339,78.53,78,4,9.08,clear sky,2021-11-24 03:00:38
337,Turka,UA,49.1541,23.0297,33.26,95,100,1.86,overcast clouds,2021-11-24 03:02:55
338,Bonanza,NI,14.0289,-84.591,69.01,98,81,3.31,broken clouds,2021-11-24 03:02:55
339,Chicama,PE,-7.8447,-79.1469,67.03,79,86,4.83,overcast clouds,2021-11-24 03:02:56
340,Puerto Barrios,GT,15.7167,-88.6,76.15,88,75,0.0,broken clouds,2021-11-24 03:02:56
341,Lichinga,MZ,-13.3128,35.2406,66.49,50,68,5.41,broken clouds,2021-11-24 03:02:56
342,Montrose,US,38.4166,-108.2673,36.36,86,100,7.87,overcast clouds,2021-11-24 03:02:56
343,Ponta Delgada,PT,37.7333,-25.6667,68.5,94,40,12.66,scattered clouds,2021-11-24 03:02:57
344,Kirakira,SB,-10.4544,161.9205,83.35,75,100,12.57,light rain,2021-11-24 03:02:57
345,Stara Ves Nad Ondrejnici,CZ,49.7277,18.1885,40.15,86,90,7.0,overcast clouds,2021-11-24 03:02:57
346,Narsingi,IN,18.0333,78.4333,73.35,77,89,6.44,overcast clouds,2021-11-24 03:02:58
347,Lincoln,US,40.8,-96.667,60.3,46,3,5.99,clear sky,2021-11-24 03:00:24
348,Georgetown,MY,5.4112,100.3354,85.95,80,20,5.75,few clouds,2021-11-24 03:00:29
349,Waipawa,NZ,-41.4122,175.5153,65.03,53,4,8.16,clear sky,2021-11-24 03:02:58
350,Bryanka,UA,48.511,38.6722,25.95,72,100,8.43,overcast clouds,2021-11-24 03:02:58
351,Mehamn,NO,71.0357,27.8492,22.19,76,100,3.09,overcast clouds,2021-11-24 03:02:59
352,Egvekinot,RU,66.3167,-179.1667,-4.9,66,17,6.4,few clouds,2021-11-24 03:02:59
353,Hirna,ET,9.2167,41.1,56.14,59,70,3.02,broken clouds,2021-11-24 03:02:59
354,Antofagasta,CL,-23.65,-70.4,60.08,73,58,1.74,broken clouds,2021-11-24 03:02:59
355,Isangel,VU,-19.55,169.2667,78.42,79,100,8.19,light rain,2021-11-24 03:03:00
356,Mocuba,MZ,-16.8392,36.9856,74.71,84,41,3.18,scattered clouds,2021-11-24 03:03:00
357,Mutoko,ZW,-17.397,32.2268,66.09,77,100,2.89,overcast clouds,2021-11-24 03:03:00
358,Kande,TG,9.9578,1.0447,76.19,25,100,3.47,overcast clouds,2021-11-24 03:03:01
359,Isla Mujeres,MX,21.2311,-86.731,73.45,59,18,13.96,few clouds,2021-11-24 03:03:01
360,Richards Bay,ZA,-28.783,32.0377,65.84,68,100,13.67,overcast clouds,2021-11-24 03:03:01
361,Kysyl-Syr,RU,63.8986,122.7617,-19.43,94,6,3.62,clear sky,2021-11-24 03:03:01
362,Manggar,ID,-2.8833,108.2667,76.84,88,100,13.33,light rain,2021-11-24 03:03:02
363,Saint-Augustin,CA,51.226,-58.6502,40.64,98,100,15.37,overcast clouds,2021-11-24 03:03:02
364,Foam Lake,CA,51.65,-103.5343,17.42,92,100,15.82,overcast clouds,2021-11-24 03:00:07
365,Abha,SA,18.2164,42.5053,52.05,22,0,0.0,clear sky,2021-11-24 03:03:02
366,Abalak,RU,58.1286,68.5944,17.31,94,100,7.4,light snow,2021-11-24 03:03:03
367,Janauba,BR,-15.8025,-43.3089,72.25,84,28,1.83,scattered clouds,2021-11-24 03:03:03
368,Geraldton,AU,-28.7667,114.6,90.12,14,40,10.36,haze,2021-11-24 03:03:03
369,Faanui,PF,-16.4833,-151.75,81.32,69,53,3.44,broken clouds,2021-11-24 03:03:03
370,Opotiki,NZ,-38.0833,177.2833,70.39,44,7,5.7,clear sky,2021-11-24 03:03:04
371,Masvingo,ZW,-20.0637,30.8277,65.79,78,34,1.88,scattered clouds,2021-11-24 03:03:04
372,Iturama,BR,-19.7281,-50.1956,76.59,46,76,6.22,broken clouds,2021-11-24 03:03:04
373,Lasa,IT,46.6166,10.7002,31.03,60,3,0.58,clear sky,2021-11-24 03:03:05
374,Axim,GH,4.8699,-2.2405,78.19,83,15,6.15,few clouds,2021-11-24 03:03:05
375,Vanavara,RU,60.34,102.2797,19.22,88,99,9.19,overcast clouds,2021-11-24 03:03:05
376,Moose Factory,CA,51.2585,-80.6094,25.61,81,100,11.9,overcast clouds,2021-11-24 03:03:06
377,Kitimat,CA,54.0524,-128.6534,32.16,98,93,4.32,light snow,2021-11-24 03:00:32
378,Dunedin,NZ,-45.8742,170.5036,59.45,66,100,7.65,overcast clouds,2021-11-24 03:03:06
379,Hirara,JP,24.8,125.2833,69.15,61,92,17.18,overcast clouds,2021-11-24 03:03:06
380,Oksfjord,NO,70.2396,22.3479,23.92,89,100,5.88,light snow,2021-11-24 03:03:07
381,Zeya,RU,53.75,127.2667,21.11,47,100,8.34,overcast clouds,2021-11-24 03:03:07
382,Cayenne,GF,4.9333,-52.3333,81.09,84,20,4.0,few clouds,2021-11-24 03:03:07
383,Beloha,MG,-25.1667,45.05,72.41,86,73,12.71,broken clouds,2021-11-24 03:02:50
384,Burnie,AU,-41.0667,145.9167,65.08,70,100,5.77,overcast clouds,2021-11-24 03:03:08
385,Kushmurun,KZ,52.4503,64.6311,16.02,91,100,6.4,overcast clouds,2021-11-24 03:03:08
386,Cilegon,ID,-6.0174,106.0538,85.86,60,100,8.41,overcast clouds,2021-11-24 03:03:08
387,Gotha,DE,50.9482,10.7019,40.53,96,75,5.75,broken clouds,2021-11-24 03:03:09
388,Boyolangu,ID,-8.1181,111.8935,79.9,80,99,4.99,light rain,2021-11-24 03:03:09
389,Magistralnyy,RU,56.1725,107.4458,15.89,89,76,4.14,broken clouds,2021-11-24 03:03:09
390,Poya,NC,-21.35,165.15,82.51,64,100,9.44,light rain,2021-11-24 03:03:09
391,Adrar,MR,20.5022,-10.0711,73.22,38,91,9.01,overcast clouds,2021-11-24 03:03:10
392,Miramar,US,25.9873,-80.2323,61.05,71,1,11.5,clear sky,2021-11-24 03:03:10
393,Fontem,CM,5.4685,9.8818,65.1,83,96,3.31,overcast clouds,2021-11-24 03:03:10
394,Tautira,PF,-17.7333,-149.15,84.22,72,51,6.06,broken clouds,2021-11-24 03:03:11
395,Dudinka,RU,69.4058,86.1778,14.47,83,100,14.85,overcast clouds,2021-11-24 03:03:11
396,Dubna,RU,56.7333,37.1667,20.03,70,12,8.14,few clouds,2021-11-24 03:03:11
397,Ambon,ID,-3.6954,128.1814,87.94,66,20,6.91,few clouds,2021-11-24 03:03:12
398,Namibe,AO,-15.1961,12.1522,68.83,72,3,5.68,clear sky,2021-11-24 03:03:12
399,Sola,VU,-13.8833,167.55,78.12,79,100,19.44,light rain,2021-11-24 03:03:12
400,Coronel Vivida,BR,-25.9797,-52.5678,66.42,72,85,4.54,overcast clouds,2021-11-24 03:03:13
401,Talaya,RU,61.3833,152.75,-15.68,98,84,0.6,broken clouds,2021-11-24 03:03:13
402,Ituiutaba,BR,-18.9689,-49.465,79.02,48,90,3.33,overcast clouds,2021-11-24 03:03:13
403,Qinggang,CN,46.6833,126.0833,16.05,80,91,13.65,overcast clouds,2021-11-24 03:03:14
404,Zyryanka,RU,65.75,150.85,-18.17,93,99,5.39,overcast clouds,2021-11-24 03:03:14
405,Mgandu,TZ,-5.95,34.1333,66.79,57,69,1.99,broken clouds,2021-11-24 03:03:14
406,Ahipara,NZ,-35.1667,173.1667,63.0,84,69,2.21,broken clouds,2021-11-24 03:03:15
407,Severo-Kurilsk,RU,50.6789,156.125,37.38,97,100,30.6,moderate rain,2021-11-24 03:03:15
408,Roma,US,43.2128,-75.4557,28.26,85,1,0.0,clear sky,2021-11-24 03:02:41
409,Zlitan,LY,32.4674,14.5687,68.36,63,99,2.15,overcast clouds,2021-11-24 03:03:15
410,Iberia,US,29.9502,-91.7507,51.12,81,1,5.75,clear sky,2021-11-24 03:02:41
411,Lebu,CL,-37.6167,-73.65,54.86,91,3,13.49,clear sky,2021-11-24 03:03:16
412,Hobyo,SO,5.3505,48.5268,79.03,78,89,4.03,light rain,2021-11-24 03:03:16
413,Kurilsk,RU,45.2333,147.8833,40.82,64,99,11.97,overcast clouds,2021-11-24 03:03:16
414,Male,MV,4.1748,73.5089,81.3,70,100,16.55,overcast clouds,2021-11-24 03:03:17
415,Vanimo,PG,-2.6741,141.3028,80.24,81,97,5.03,light rain,2021-11-24 03:03:17
416,Opunake,NZ,-39.4556,173.8583,71.35,64,0,13.09,clear sky,2021-11-24 03:03:17
417,Lerwick,GB,60.1545,-1.1494,48.2,81,100,23.6,overcast clouds,2021-11-24 03:03:18
418,Palmer,US,42.1584,-72.3287,30.45,54,0,1.99,clear sky,2021-11-24 03:01:47
419,Santa Clara,CU,22.4,-79.9667,62.26,100,20,3.44,few clouds,2021-11-24 03:03:18
420,Deer Lake,CA,49.1667,-57.4316,46.26,81,90,17.27,overcast clouds,2021-11-24 03:03:18
421,Saint Anthony,US,45.0205,-93.218,48.31,53,1,5.99,clear sky,2021-11-24 03:03:19
422,Hasaki,JP,35.7333,140.8333,63.28,36,0,13.67,clear sky,2021-11-24 03:03:19
423,Puerto Leguizamo,CO,-0.1934,-74.7819,72.61,96,96,2.24,overcast clouds,2021-11-24 03:03:19
424,Ornes,NO,66.8689,13.7078,35.71,82,100,10.83,overcast clouds,2021-11-24 03:03:19
425,Gasa,PS,31.5,34.4667,58.98,72,100,3.8,overcast clouds,2021-11-24 03:03:20
426,Grand Gaube,MU,-20.0064,57.6608,79.38,71,17,5.01,few clouds,2021-11-24 03:03:20
427,Thessalon,CA,46.2501,-83.5666,35.89,65,87,17.31,overcast clouds,2021-11-24 03:03:20
428,Da Nang,VN,16.0678,108.2208,73.38,83,75,6.91,broken clouds,2021-11-24 03:03:20
429,Loandjili,CG,-4.7561,11.8578,77.61,88,100,5.79,moderate rain,2021-11-24 03:03:21
430,Virginia Beach,US,36.8529,-75.978,42.03,48,5,3.0,clear sky,2021-11-24 02:59:10
431,Zhigansk,RU,66.7697,123.3711,-35.66,100,44,1.79,scattered clouds,2021-11-24 03:03:21
432,Bambanglipuro,ID,-7.95,110.2833,82.31,77,95,6.44,overcast clouds,2021-11-24 03:03:22
433,Makat,KZ,47.6469,53.3463,36.27,90,100,15.39,overcast clouds,2021-11-24 03:03:22
434,Dabakala,CI,8.3667,-4.4333,72.88,74,6,3.56,clear sky,2021-11-24 03:03:22
435,Zhezkazgan,KZ,47.8043,67.7144,35.87,97,100,10.83,overcast clouds,2021-11-24 02:58:39
436,Olinda,BR,-8.0089,-34.8553,82.13,74,40,5.75,scattered clouds,2021-11-24 03:03:23
437,Gari,RU,59.4307,62.3497,9.03,91,100,6.46,overcast clouds,2021-11-24 03:03:23
438,Pacific Grove,US,36.6177,-121.9166,59.27,86,100,1.01,overcast clouds,2021-11-24 03:00:44
439,Paka,MY,4.6374,103.4368,82.92,75,100,2.33,overcast clouds,2021-11-24 03:03:23
440,Sinnamary,GF,5.3833,-52.95,79.05,87,88,8.97,overcast clouds,2021-11-24 03:03:24
441,Port Antonio,JM,18.18,-76.4612,73.9,78,29,3.27,scattered clouds,2021-11-24 03:03:24
442,Yeniseysk,RU,58.4497,92.1703,25.7,84,100,11.41,overcast clouds,2021-11-24 03:03:24
443,Myitkyina,MM,25.3833,97.4,72.46,57,3,2.98,clear sky,2021-11-24 03:03:24
444,Tarbagatay,RU,51.4803,107.3602,9.93,74,62,3.56,broken clouds,2021-11-24 03:03:25
445,Marzuq,YE,14.4,46.4667,63.19,27,26,3.38,scattered clouds,2021-11-24 03:03:25
446,Lokosovo,RU,61.1333,74.8167,12.38,91,100,11.3,overcast clouds,2021-11-24 03:03:25
447,Silver City,US,32.7701,-108.2803,54.68,49,1,0.0,clear sky,2021-11-24 03:03:26
448,Salym,RU,60.0625,71.4789,8.02,95,99,6.51,overcast clouds,2021-11-24 03:03:26
449,Lardos,GR,36.0942,28.0157,66.02,80,71,10.0,broken clouds,2021-11-24 03:03:26
450,Lagoa,PT,39.05,-27.9833,65.64,86,87,22.12,overcast clouds,2021-11-24 03:03:27
451,Aras,ES,42.5617,-2.356,40.71,100,75,5.75,broken clouds,2021-11-24 03:03:27
452,Rosita,NI,13.9268,-84.4032,71.96,93,62,4.25,broken clouds,2021-11-24 03:03:27
453,Pangoa,PE,-12.1167,-73.0,68.85,98,100,1.77,overcast clouds,2021-11-24 03:03:28
454,Yeppoon,AU,-23.1333,150.7333,82.18,66,67,11.86,broken clouds,2021-11-24 03:03:28
455,Huaicheng,CN,23.9051,112.1931,65.61,42,37,1.57,scattered clouds,2021-11-24 03:03:28
456,Neuquen,AR,-38.9516,-68.0591,67.89,60,0,3.44,clear sky,2021-11-24 03:03:29
457,Iquique,CL,-20.2208,-70.1431,63.48,72,68,1.7,broken clouds,2021-11-24 03:01:10
458,Vrangel,RU,42.7297,133.0839,28.18,52,50,20.69,scattered clouds,2021-11-24 03:03:29
459,Katangli,RU,51.7102,143.2326,34.05,77,66,14.58,light rain,2021-11-24 03:03:29
460,Auki,SB,-8.7676,160.7034,84.56,69,77,4.72,light rain,2021-11-24 03:03:30
461,Fort Nelson,CA,58.8053,-122.7002,-12.84,100,99,0.92,overcast clouds,2021-11-24 03:00:05
462,Milton,US,34.1322,-84.3007,41.18,68,0,2.55,clear sky,2021-11-24 03:03:30
463,Barcelos,PT,41.5388,-8.6151,49.28,85,80,4.88,broken clouds,2021-11-24 03:03:31
464,Gua Musang,MY,4.8823,101.9644,75.22,97,100,0.31,overcast clouds,2021-11-24 03:03:31
465,General Roca,AR,-39.0333,-67.5833,68.4,18,1,4.72,clear sky,2021-11-24 03:03:31
466,Inuvik,CA,68.3499,-133.7218,-18.02,100,96,0.94,overcast clouds,2021-11-24 03:03:32
467,Goundi,TD,9.3627,17.366,71.73,28,3,3.47,clear sky,2021-11-24 03:03:32
468,Huarmey,PE,-10.0681,-78.1522,67.06,82,100,8.03,overcast clouds,2021-11-24 03:03:32
469,Plouzane,FR,48.3833,-4.6167,48.52,87,90,8.05,overcast clouds,2021-11-24 03:03:22
470,Davila,PH,18.4726,120.5763,80.19,80,45,24.09,scattered clouds,2021-11-24 03:03:33
471,Plomarion,GR,38.9767,26.3681,56.57,90,100,12.44,light rain,2021-11-24 03:03:33
472,Palana,RU,59.1167,159.9667,24.6,76,2,10.69,clear sky,2021-11-24 03:03:33
473,Letenye,HU,46.433,16.7258,30.33,78,4,2.64,clear sky,2021-11-24 03:03:33
474,Pyshchug,RU,58.8873,45.7134,18.48,94,100,5.19,light snow,2021-11-24 03:03:34
475,Merauke,ID,-8.4667,140.3333,90.55,44,30,3.91,scattered clouds,2021-11-24 03:03:34
476,Preobrazheniye,RU,42.9019,133.9064,26.96,50,60,15.28,broken clouds,2021-11-24 03:03:34
477,Ligaya,PH,12.6599,120.8923,87.08,56,100,1.28,overcast clouds,2021-11-24 03:03:35
478,Padang,ID,-0.9492,100.3543,86.05,57,100,2.17,overcast clouds,2021-11-24 03:03:35
479,Husavik,IS,66.0449,-17.3389,33.13,83,100,35.66,snow,2021-11-24 03:03:35
480,Kamaishi,JP,39.2667,141.8833,43.86,67,94,8.01,overcast clouds,2021-11-24 03:03:36
481,Nishihara,JP,26.1842,127.7558,69.85,51,40,12.66,scattered clouds,2021-11-24 03:03:36
482,Emet,TR,39.343,29.2585,47.3,97,100,3.91,light rain,2021-11-24 03:03:36
483,Cananeia,BR,-25.0147,-47.9267,70.9,91,95,9.4,light rain,2021-11-24 03:03:36
484,Sao Gabriel Da Cachoeira,BR,-0.1303,-67.0892,73.47,99,100,1.68,overcast clouds,2021-11-24 03:03:37
485,Ancud,CL,-41.8697,-73.8203,56.73,96,9,4.36,clear sky,2021-11-24 03:03:37
486,Bembereke,BJ,10.2283,2.6634,72.14,28,34,0.25,scattered clouds,2021-11-24 03:03:37
487,Karoi,ZW,-16.8099,29.6925,66.47,75,67,3.15,broken clouds,2021-11-24 03:03:38
488,Akersberga,SE,59.4794,18.2997,41.88,84,37,10.96,scattered clouds,2021-11-24 03:03:38
489,Altus,US,34.6381,-99.334,64.47,33,1,3.0,clear sky,2021-11-24 03:03:38
490,Oktyabrskiy,RU,54.4815,53.471,1.22,99,92,5.77,overcast clouds,2021-11-24 03:03:38
491,Oda,JP,35.1833,132.5,52.7,57,100,19.46,overcast clouds,2021-11-24 03:03:39
492,Svetlyy,RU,54.675,20.1347,42.85,88,88,16.84,overcast clouds,2021-11-24 03:03:39
493,Pingliang,CN,35.5392,106.6861,47.46,26,0,2.44,clear sky,2021-11-24 03:03:39
494,Ouadda,CF,8.0777,22.4007,66.15,35,2,3.96,clear sky,2021-11-24 03:03:39
495,Jalu,LY,29.0331,21.5482,65.57,32,100,6.31,overcast clouds,2021-11-24 03:03:40
496,Uglekamensk,RU,43.2172,133.2303,24.1,48,95,8.23,overcast clouds,2021-11-24 03:03:40
497,Makakilo City,US,21.3469,-158.0858,80.92,59,40,10.36,scattered clouds,2021-11-24 03:03:40
498,Gamba,GA,-2.65,10.0,74.5,90,90,1.81,light rain,2021-11-24 03:03:40
499,Gushikawa,JP,26.3544,127.8686,69.8,51,40,11.5,scattered clouds,2021-11-24 03:03:41
500,Bardiyah,LY,31.7561,25.0865,63.37,50,98,9.37,overcast clouds,2021-11-24 03:03:41
501,Sucua,EC,-2.4667,-78.1667,68.38,98,98,2.42,overcast clouds,2021-11-24 03:03:41
502,Port Moresby,PG,-9.4431,147.1797,85.59,68,20,6.31,few clouds,2021-11-24 03:03:42
503,Tamandare,BR,-8.7597,-35.1047,78.04,80,17,9.08,few clouds,2021-11-24 03:03:42
504,Havre-Saint-Pierre,CA,50.2334,-63.5986,33.06,71,100,18.61,overcast clouds,2021-11-24 03:03:42
505,Kortkeros,RU,61.8106,51.5806,15.8,96,100,6.17,overcast clouds,2021-11-24 03:03:43
506,Shetpe,KZ,44.1667,52.1167,43.38,77,99,6.78,overcast clouds,2021-11-24 03:03:43
507,Zoniana,GR,35.295,24.8294,57.11,80,92,6.11,overcast clouds,2021-11-24 03:03:43
508,Bage,BR,-31.3314,-54.1069,55.18,82,0,8.05,clear sky,2021-11-24 03:03:43
509,Kodinsk,RU,58.6881,99.1844,28.22,92,100,8.63,overcast clouds,2021-11-24 03:03:11
510,Luorong,CN,24.4058,109.6086,55.65,59,97,5.7,overcast clouds,2021-11-24 03:03:44
511,Kayseri,TR,38.737,35.4968,41.02,93,75,0.0,broken clouds,2021-11-24 03:03:44
512,Kargil,IN,34.5667,76.1,18.73,53,100,3.2,overcast clouds,2021-11-24 03:03:44
513,Rawson,AR,-43.3002,-65.1023,70.34,43,46,25.48,scattered clouds,2021-11-24 03:03:44
514,Zaysan,KZ,47.4667,84.8667,28.92,83,99,0.67,overcast clouds,2021-11-24 03:03:45
515,Yandyki,RU,45.7691,47.1258,42.62,84,100,14.36,overcast clouds,2021-11-24 03:03:45
516,Rwamagana,RW,-1.9487,30.4347,63.84,95,16,1.74,few clouds,2021-11-24 03:03:45
517,Cidreira,BR,-30.1811,-50.2056,64.31,68,0,7.7,clear sky,2021-11-24 03:03:46
518,Orlik,RU,52.5178,99.825,8.51,86,100,1.92,overcast clouds,2021-11-24 03:03:46
519,Bronnoysund,NO,65.4625,12.1997,37.4,87,75,4.61,broken clouds,2021-11-24 03:03:46
520,Kavaratti,IN,10.5669,72.642,80.28,81,100,11.86,overcast clouds,2021-11-24 03:03:46
521,Lloydminster,CA,53.2835,-110.0016,1.92,94,88,9.24,overcast clouds,2021-11-24 03:02:12
522,Kaeo,NZ,-35.1,173.7833,71.33,74,61,5.75,broken clouds,2021-11-24 03:03:47
523,Balaipungut,ID,1.05,101.2833,79.21,78,100,1.99,overcast clouds,2021-11-24 03:03:47
524,Saint George,US,37.1041,-113.5841,57.34,36,1,1.99,clear sky,2021-11-24 03:00:44
525,Nome,US,64.5011,-165.4064,8.67,61,20,23.02,few clouds,2021-11-24 03:03:47
526,Bayir,TR,37.2687,28.2167,54.12,98,100,5.68,light rain,2021-11-24 03:03:48
527,Lugovoy,KZ,42.9472,72.7644,42.22,44,15,3.91,few clouds,2021-11-24 03:03:48
528,Senno,RU,59.5336,33.9167,24.26,89,100,10.8,overcast clouds,2021-11-24 03:03:48
529,Bilibino,RU,68.0546,166.4372,-24.36,93,4,2.91,clear sky,2021-11-24 03:03:49
530,Saint-Joseph,RE,-21.3667,55.6167,76.21,64,20,3.67,few clouds,2021-11-24 03:00:06
531,Vila Franca Do Campo,PT,37.7167,-25.4333,68.2,90,100,18.81,overcast clouds,2021-11-24 03:03:49
532,Ajdabiya,LY,30.7554,20.2263,66.22,59,54,7.58,broken clouds,2021-11-24 03:03:49
533,Olimpia,BR,-20.7372,-48.9147,76.3,35,38,3.62,scattered clouds,2021-11-24 03:03:49
534,Flin Flon,CA,54.7682,-101.865,0.75,87,100,9.95,overcast clouds,2021-11-24 03:03:50
535,Fenoarivo,MG,-18.933,47.4354,66.27,100,20,5.75,few clouds,2021-11-24 03:03:50
536,Nalut,LY,30.3333,10.85,62.31,55,94,3.49,overcast clouds,2021-11-24 03:03:50
537,Yatou,CN,37.15,122.3833,47.97,31,0,10.38,clear sky,2021-11-24 03:03:51
538,Guadalupe Y Calvo,MX,26.1,-106.9667,43.23,68,68,3.96,broken clouds,2021-11-24 03:03:51
539,Estacion Coahuila,MX,32.1939,-115.0017,71.69,31,53,9.4,broken clouds,2021-11-24 03:03:51
540,Madera,US,37.1666,-119.8343,57.07,82,100,3.56,overcast clouds,2021-11-24 03:01:32
541,Srisailam,IN,16.0833,78.8667,75.92,85,43,4.63,scattered clouds,2021-11-24 03:03:51
542,San Pedro,PH,14.35,121.0167,87.35,72,84,14.85,broken clouds,2021-11-24 03:03:52
543,Manzhouli,CN,49.6,117.4333,7.3,55,0,7.09,clear sky,2021-11-24 03:03:52
544,Zhanaozen,KZ,43.3,52.8,43.75,80,100,12.57,overcast clouds,2021-11-24 03:03:52
545,Coquimbo,CL,-29.9533,-71.3436,58.73,88,90,5.75,overcast clouds,2021-11-24 03:03:53
546,Takanabe,JP,32.1333,131.5,59.29,44,19,7.31,few clouds,2021-11-24 03:03:53
547,Abadiania,BR,-16.2042,-48.7069,68.92,86,99,1.72,overcast clouds,2021-11-24 02:59:51
548,Sambava,MG,-14.2667,50.1667,75.42,75,41,3.11,scattered clouds,2021-11-24 03:03:53
549,Pevek,RU,69.7008,170.3133,-19.62,99,100,3.38,overcast clouds,2021-11-24 03:03:53
550,Cascais,PT,38.6979,-9.4215,55.44,71,55,8.01,broken clouds,2021-11-24 03:03:54
551,Shizunai,JP,42.3339,142.3669,39.42,62,100,28.39,overcast clouds,2021-11-24 03:03:03
552,Kabalo,CD,-6.05,26.9167,68.95,96,100,1.41,overcast clouds,2021-11-24 03:03:54
553,Diffa,NE,13.3154,12.6113,74.73,27,6,9.86,clear sky,2021-11-24 03:03:54
554,Anadyr,RU,64.75,177.4833,-17.9,82,0,8.95,clear sky,2021-11-24 03:03:55
555,Atherton,GB,53.5237,-2.4935,47.75,82,100,1.99,overcast clouds,2021-11-24 03:03:55
556,Flinders,AU,-34.5833,150.8552,74.25,84,100,8.46,light rain,2021-11-24 03:03:55
557,Srednekolymsk,RU,67.45,153.6833,-14.17,93,100,0.96,overcast clouds,2021-11-24 02:59:28
558,Sal Rei,CV,16.1833,-22.9167,75.76,78,97,12.88,overcast clouds,2021-11-24 03:03:56
559,Ocos,GT,14.5094,-92.1933,78.98,74,7,2.13,clear sky,2021-11-24 03:03:56
560,Louga,RU,58.7372,29.8453,31.3,81,100,11.83,light snow,2021-11-24 03:03:56
561,Paita,PE,-5.0892,-81.1144,65.07,86,66,10.18,broken clouds,2021-11-24 03:03:56
562,Swift Current,CA,50.2834,-107.8014,17.55,81,100,17.09,overcast clouds,2021-11-24 03:00:05
563,Komagane,JP,35.7296,137.9396,47.37,80,79,7.76,broken clouds,2021-11-24 03:03:57
564,Okhotsk,RU,59.3833,143.3,11.97,73,100,14.67,overcast clouds,2021-11-24 02:59:12
565,Sakakah,SA,29.9697,40.2064,54.05,60,4,5.68,clear sky,2021-11-24 03:03:57
566,Tecoanapa,MX,16.5167,-98.75,79.57,78,0,3.31,clear sky,2021-11-24 03:03:57
567,Tanabe,JP,33.7333,135.3667,56.41,47,40,19.57,scattered clouds,2021-11-24 02:59:43
568,Peniche,PT,39.3558,-9.3811,56.62,71,100,15.59,overcast clouds,2021-11-24 03:03:58
569,Vardo,NO,70.3705,31.1107,27.9,80,100,9.89,snow,2021-11-24 03:03:58
570,Lenexa,US,38.9536,-94.7336,57.34,51,1,4.0,clear sky,2021-11-24 03:03:58
571,Iroquois Falls,CA,48.7669,-80.6831,23.79,74,100,11.21,overcast clouds,2021-11-24 03:03:59
572,Mandan,US,46.8267,-100.8896,39.96,66,1,3.0,clear sky,2021-11-24 03:03:59
573,Airai,TL,-8.9266,125.4092,76.32,55,51,1.99,broken clouds,2021-11-24 03:03:59
574,Namatanai,PG,-3.6667,152.4333,85.66,68,53,11.5,light rain,2021-11-24 03:04:00
575,Little Rock,US,34.7465,-92.2896,50.32,63,0,5.99,clear sky,2021-11-24 03:00:57
576,Sept-Iles,CA,50.2001,-66.3821,29.05,71,75,11.01,broken clouds,2021-11-24 02:59:18
577,Saint-Paul,RE,-21.0096,55.2707,78.75,78,54,1.01,broken clouds,2021-11-24 03:04:00
578,Tomatlan,MX,19.9333,-105.25,71.62,92,9,2.73,clear sky,2021-11-24 03:04:00
579,Klyuchi,RU,52.2667,79.1667,22.1,87,24,11.21,few clouds,2021-11-24 03:04:01
580,Houma,US,29.5958,-90.7195,50.0,79,0,6.53,clear sky,2021-11-24 03:04:01
581,Saint-Francois,FR,46.4154,3.9054,29.64,91,3,2.3,clear sky,2021-11-24 03:04:01
582,Patacamaya,BO,-17.2333,-67.9167,48.65,79,100,7.31,overcast clouds,2021-11-24 03:04:02
583,Coahuayana,MX,18.7333,-103.6833,80.08,91,37,2.17,scattered clouds,2021-11-24 03:04:02
584,Caldwell,US,43.6629,-116.6874,39.92,75,1,5.75,clear sky,2021-11-24 03:01:19
585,Nantucket,US,41.2835,-70.0995,37.09,57,75,20.71,broken clouds,2021-11-24 03:03:49
586,Myanaung,MM,18.2833,95.3167,80.11,74,1,5.66,clear sky,2021-11-24 03:04:02
587,Taloqan,AF,36.7361,69.5345,50.25,36,99,4.61,overcast clouds,2021-11-24 03:04:03
588,Pasighat,IN,28.0667,95.3333,71.96,53,36,1.16,scattered clouds,2021-11-24 03:04:03
589,Jacareacanga,BR,-6.2222,-57.7528,78.48,77,100,0.85,overcast clouds,2021-11-24 03:04:03
590,Inongo,CD,-1.95,18.2667,70.27,97,99,2.66,overcast clouds,2021-11-24 03:02:14
591,Acapulco,MX,16.8634,-99.8901,82.22,78,40,4.61,scattered clouds,2021-11-24 03:04:04
592,Sorong,ID,-0.8833,131.25,84.63,75,46,7.87,light rain,2021-11-24 03:03:11
593,Kasulu,TZ,-4.5767,30.1025,65.62,79,90,1.57,overcast clouds,2021-11-24 03:04:04
594,Mitsamiouli,KM,-11.3847,43.2844,79.59,78,8,14.0,clear sky,2021-11-24 03:04:04
595,Gallup,US,35.5281,-108.7426,45.36,81,90,4.0,overcast clouds,2021-11-24 03:04:05
596,Tarabha,IN,20.7333,83.65,76.06,62,17,3.6,few clouds,2021-11-24 03:04:05
597,Anjiang,CN,27.3194,110.1031,58.46,52,48,1.86,scattered clouds,2021-11-24 03:04:05
598,Smithers,CA,54.7804,-127.1743,24.37,98,86,1.45,overcast clouds,2021-11-24 03:04:05
599,Nouadhibou,MR,20.931,-17.0347,71.31,73,100,14.76,overcast clouds,2021-11-24 03:04:06
600,Kalaleh,IR,37.3807,55.4916,57.07,50,0,6.17,clear sky,2021-11-24 03:04:06
601,Constantine,DZ,36.365,6.6147,51.73,47,100,4.54,overcast clouds,2021-11-24 03:04:06
602,Belaya Gora,RU,68.5333,146.4167,-18.9,98,100,1.01,overcast clouds,2021-11-24 03:04:07
603,Lixourion,GR,38.2019,20.4314,60.35,76,23,4.21,few clouds,2021-11-24 03:04:07
604,Chernyshevskiy,RU,63.0128,112.4714,-8.0,87,100,3.74,overcast clouds,2021-11-24 03:04:07
605,Ampanihy,MG,-24.7,44.75,73.2,84,73,11.74,broken clouds,2021-11-24 03:04:07
606,Rajpipla,IN,21.8667,73.5,73.33,58,66,4.07,broken clouds,2021-11-24 03:04:08
607,Antequera,ES,37.0194,-4.5612,44.46,95,22,5.14,few clouds,2021-11-24 03:04:08
608,Martinsburg,US,39.4562,-77.9639,33.91,66,0,4.74,clear sky,2021-11-24 03:00:00
609,Kedougou,SN,12.5579,-12.1743,75.63,33,97,2.98,overcast clouds,2021-11-24 03:04:08
610,Tolosa,FR,43.6043,1.4437,51.78,93,75,8.05,broken clouds,2021-11-24 03:00:44
611,La Tuque,CA,47.4334,-72.7824,21.16,88,9,6.62,clear sky,2021-11-24 03:04:09
612,Ereymentau,KZ,51.6199,73.1033,17.96,89,100,12.5,overcast clouds,2021-11-24 03:04:09
613,Nkoteng,CM,4.5167,12.0333,67.44,99,73,2.39,broken clouds,2021-11-24 03:04:09
614,Yuryevets,RU,57.3201,43.1041,21.4,90,100,13.15,overcast clouds,2021-11-24 03:04:09
615,Comodoro Rivadavia,AR,-45.8667,-67.5,69.66,23,0,17.27,clear sky,2021-11-24 03:04:10
616,Banda Aceh,ID,5.5577,95.3222,83.19,74,96,3.0,overcast clouds,2021-11-24 03:04:10
617,Saint-Pierre,RE,-21.3393,55.4781,78.3,63,0,6.91,clear sky,2021-11-24 03:04:11
618,Itarema,BR,-2.9248,-39.9167,80.15,80,79,13.51,broken clouds,2021-11-24 03:04:11
619,Beihai,CN,21.4833,109.1,65.32,47,69,10.45,broken clouds,2021-11-24 03:04:11
620,Carballo,ES,43.213,-8.691,50.86,80,78,10.25,broken clouds,2021-11-24 03:04:11
621,Columbus,US,39.9612,-82.9988,31.84,77,1,4.61,clear sky,2021-11-24 03:00:11
622,Tam Ky,VN,15.5667,108.4833,73.38,87,100,14.14,overcast clouds,2021-11-24 03:00:54
623,Lagunas,PE,-5.2269,-75.6753,72.95,98,97,2.3,heavy intensity rain,2021-11-24 03:04:12
624,Uyuni,BO,-20.4597,-66.825,50.29,65,97,9.6,overcast clouds,2021-11-24 03:04:12
625,Deputatskiy,RU,69.3,139.9,-23.75,95,100,4.05,overcast clouds,2021-11-24 03:04:12
626,Hami,CN,42.8,93.45,29.01,54,56,1.19,broken clouds,2021-11-24 03:04:13
627,Moron,AR,-34.6534,-58.6198,73.15,65,0,6.53,clear sky,2021-11-24 03:04:13
628,Anito,PH,12.4497,125.2886,81.0,89,100,11.61,very heavy rain,2021-11-24 03:03:38
629,Russell,US,32.3502,-85.1999,39.38,49,0,3.33,clear sky,2021-11-24 03:04:15
630,Santiago De Compostela,ES,42.8805,-8.5457,49.15,69,75,7.0,broken clouds,2021-11-24 03:04:15
631,Vilyuysk,RU,63.7553,121.6247,-17.68,91,6,4.07,clear sky,2021-11-24 03:04:15
632,Darhan,MN,49.4867,105.9228,14.22,78,6,4.14,clear sky,2021-11-24 03:04:15
633,Djibo,BF,14.1022,-1.6306,76.3,23,0,10.2,clear sky,2021-11-24 03:04:16
634,Lazaro Cardenas,MX,17.9583,-102.2,77.47,84,38,4.72,scattered clouds,2021-11-24 03:04:16
635,Nelson Bay,AU,-32.7167,152.15,83.75,81,100,20.04,overcast clouds,2021-11-24 03:04:16
636,Sokolo,ML,14.7328,-6.1219,79.57,29,3,13.91,clear sky,2021-11-24 03:04:17
637,Biala Podlaska,PL,52.0324,23.1165,33.94,97,39,9.26,scattered clouds,2021-11-24 03:04:17
638,Bar Harbor,US,44.3876,-68.2039,29.01,64,1,8.05,clear sky,2021-11-24 03:04:17
639,Magaria,NE,12.9983,8.9099,74.19,21,14,8.75,few clouds,2021-11-24 03:04:17
640,Shelburne,CA,44.0787,-80.2041,26.76,90,33,6.85,scattered clouds,2021-11-24 03:04:18
641,Rameshki,RU,57.3439,36.0453,19.17,79,19,8.37,few clouds,2021-11-24 03:04:18
642,Viedma,AR,-40.8135,-62.9967,71.02,31,7,8.28,clear sky,2021-11-24 03:04:18
643,Beringovskiy,RU,63.05,179.3167,-7.67,89,10,5.68,clear sky,2021-11-24 03:04:19
644,Guiyang,CN,26.5833,106.7167,47.28,72,94,3.62,overcast clouds,2021-11-24 03:04:19
645,Mbanza-Ngungu,CD,-5.25,14.8667,68.45,98,100,5.14,moderate rain,2021-11-24 03:04:19
646,Wuda,CN,39.4994,106.7117,41.16,21,9,17.22,clear sky,2021-11-24 03:04:19
647,Buala,SB,-8.145,159.5921,86.11,66,99,7.56,overcast clouds,2021-11-24 03:04:20
648,Urucara,BR,-2.5364,-57.76,77.9,79,82,0.92,broken clouds,2021-11-24 03:04:20
649,Dawlatabad,AF,36.4141,64.9053,52.7,64,43,2.89,scattered clouds,2021-11-24 03:04:20
650,Barsovo,RU,61.1667,73.1667,-0.27,93,100,11.7,overcast clouds,2021-11-24 03:04:20
651,Tromso,NO,69.6496,18.957,27.25,86,90,4.0,light snow,2021-11-24 03:04:21
652,The Pas,CA,53.8251,-101.2541,3.22,78,90,17.27,overcast clouds,2021-11-24 03:04:21
653,Boddam,GB,57.4667,-1.7833,47.39,75,87,16.98,overcast clouds,2021-11-24 03:04:21
654,Skelleftea,SE,64.7507,20.9528,30.99,65,20,3.0,few clouds,2021-11-24 03:04:22
655,Beyneu,KZ,45.3167,55.2,44.78,61,100,8.97,overcast clouds,2021-11-24 03:04:22
656,Muisne,EC,0.6,-80.0333,73.96,81,99,7.52,overcast clouds,2021-11-24 03:04:22
657,Santa Cruz,BO,-17.8,-63.1667,79.86,73,100,5.95,overcast clouds,2021-11-24 03:00:03
658,Sur,OM,22.5667,59.5289,76.57,29,7,2.68,clear sky,2021-11-24 03:04:22
659,Tazovskiy,RU,67.4667,78.7,2.3,96,93,10.33,overcast clouds,2021-11-24 03:04:23
660,Teguise,ES,29.0605,-13.564,61.02,82,0,3.44,clear sky,2021-11-24 03:04:23
661,Ngama,TD,11.7833,17.1667,74.68,21,8,8.61,clear sky,2021-11-24 03:04:23
662,Weatherford,US,32.7593,-97.7972,59.77,48,98,3.0,overcast clouds,2021-11-24 03:04:23
663,Sainte-Luce-Sur-Loire,FR,47.2538,-1.4843,40.82,87,0,13.8,clear sky,2021-11-24 03:04:24
664,Marawi,PH,7.9986,124.2928,75.65,64,90,4.76,overcast clouds,2021-11-24 03:04:24
665,Kamensk-Uralskiy,RU,56.4185,61.9329,12.7,84,49,13.2,scattered clouds,2021-11-24 03:00:13
666,Itupiranga,BR,-5.1347,-49.3267,75.47,85,53,3.13,broken clouds,2021-11-24 03:04:24
667,Saint John,CA,45.2727,-66.0677,30.18,79,93,14.27,overcast clouds,2021-11-24 03:00:05
668,Sangar,RU,63.9242,127.4739,-23.22,96,75,3.29,broken clouds,2021-11-24 03:04:25
669,Rio Gallegos,AR,-51.6226,-69.2181,44.65,65,0,6.91,clear sky,2021-11-24 03:04:25
670,Nhulunbuy,AU,-12.2333,136.7667,93.81,49,40,12.66,scattered clouds,2021-11-24 03:04:25
671,Norheimsund,NO,60.3709,6.1456,49.71,98,100,7.9,light rain,2021-11-24 03:04:25
672,Havelock,US,34.8791,-76.9013,44.55,82,0,5.35,clear sky,2021-11-24 03:02:15
673,Wenling,CN,28.3669,121.36,59.92,52,65,1.68,broken clouds,2021-11-24 03:04:26
674,Marsh Harbour,BS,26.5412,-77.0636,70.34,67,100,23.76,overcast clouds,2021-11-24 03:04:26
675,Notre-Dame-Du-Lac,CA,47.6136,-68.7964,24.26,72,62,10.98,broken clouds,2021-11-24 03:04:26
676,Ponce,PR,18.073,-66.6185,75.47,88,25,3.18,scattered clouds,2021-11-24 03:00:33
677,Esmeralda,CU,21.8525,-78.1169,74.44,69,44,9.22,scattered clouds,2021-11-24 03:04:27
678,Ileza,RU,61.0533,43.9002,12.31,99,100,4.07,overcast clouds,2021-11-24 03:04:27
679,Plettenberg Bay,ZA,-34.0527,23.3716,58.06,78,95,3.53,overcast clouds,2021-11-24 03:04:27
680,Raton,US,36.9034,-104.4391,53.94,35,1,6.91,clear sky,2021-11-24 03:04:27
681,Rudnaya Pristan,RU,44.3614,135.8116,26.02,56,100,15.73,overcast clouds,2021-11-24 03:04:28
682,Sandwick,GB,60.0,-1.25,48.02,87,90,20.71,overcast clouds,2021-11-24 03:04:28
683,Cabinda,AO,-5.55,12.2,77.67,89,99,5.84,overcast clouds,2021-11-24 03:04:28
684,Kalemie,CD,-5.9475,29.1947,69.58,81,63,3.15,broken clouds,2021-11-24 03:04:29
685,Aguada De Cima,PT,40.5229,-8.427,47.48,88,77,4.09,broken clouds,2021-11-24 03:04:29
686,Mount Isa,AU,-20.7333,139.5,83.97,39,75,8.05,broken clouds,2021-11-24 03:04:29
687,Selfoss,IS,63.9331,-20.9971,35.04,74,5,34.4,clear sky,2021-11-24 03:04:29
688,Norton,ZW,-17.8833,30.7,65.28,80,81,3.2,broken clouds,2021-11-24 03:04:30
689,Ciro Marina,IT,39.3732,17.126,51.85,80,66,18.68,broken clouds,2021-11-24 03:04:30
690,Tairua,NZ,-37.0167,175.85,67.08,72,86,5.57,overcast clouds,2021-11-24 03:04:30
691,Dingle,PH,10.9995,122.6711,82.85,82,100,15.01,overcast clouds,2021-11-24 03:04:31
692,Belize,BZ,17.25,-88.75,71.24,85,12,3.09,few clouds,2021-11-24 03:02:54
693,Mweka,CD,-4.85,21.5667,68.5,99,100,2.55,light rain,2021-11-24 03:04:31
694,Chake Chake,TZ,-5.2459,39.7666,76.98,88,95,4.63,overcast clouds,2021-11-24 03:04:31
695,Vieques,PR,18.425,-65.8329,77.61,78,19,5.28,few clouds,2021-11-24 03:04:32
696,Carlsbad,US,33.1581,-117.3506,63.1,90,90,1.01,overcast clouds,2021-11-24 03:04:30
697,Bogatoye,RU,53.0601,51.3325,7.5,97,53,3.51,broken clouds,2021-11-24 03:04:32
698,Izumo,JP,35.3667,132.7667,51.42,60,100,19.69,overcast clouds,2021-11-24 03:04:32
699,Haines Junction,CA,60.7522,-137.5108,-4.45,100,100,0.72,overcast clouds,2021-11-24 03:04:32
700,Caohai,CN,26.8661,104.2841,38.95,81,97,3.31,overcast clouds,2021-11-24 03:04:33
701,Katherine,AU,-14.4667,132.2667,93.52,46,100,5.75,overcast clouds,2021-11-24 03:04:33
702,Maputo,MZ,-25.9653,32.5892,66.22,82,75,11.99,broken clouds,2021-11-24 03:04:33
703,Thinadhoo,MV,0.5333,72.9333,82.13,77,87,16.82,overcast clouds,2021-11-24 03:04:33
704,Weihai,CN,37.5017,122.1136,47.73,36,0,11.16,clear sky,2021-11-24 03:04:34
705,Xiongyue,CN,40.1774,122.1228,38.55,39,0,4.34,clear sky,2021-11-24 03:04:34
706,Urengoy,RU,65.9667,78.3667,8.8,95,100,10.89,overcast clouds,2021-11-24 03:04:34
707,Kalachinsk,RU,55.0529,74.5751,14.31,92,91,13.31,overcast clouds,2021-11-24 03:04:35
708,Mangaluru,IN,12.8667,74.8833,76.06,100,40,0.0,mist,2021-11-24 03:02:01
709,Bahia De Caraquez,EC,-0.6,-80.4167,73.58,84,100,8.88,overcast clouds,2021-11-24 03:04:35
710,Cangzhou,CN,38.3167,116.8667,45.41,32,0,7.63,clear sky,2021-11-24 03:00:24
711,Ostrovnoy,RU,68.0531,39.5131,29.73,69,100,18.48,light snow,2021-11-24 03:04:35
